{"type":"FeatureCollection","features":[{"type":"Feature","geometry":{"type":"LineString","coordinates":[[-3.188396,55.944425],[-3.1881006,55.9443729],[-3.1878051,55.9443208],[-3.1879077,55.9446027],[-3.1880103,55.9448846],[-3.1882701,55.9450346],[-3.1884999,55.9452275],[-3.1887598,55.9453775],[-3.1886571,55.9456594],[-3.1886051,55.9459548],[-3.1889051,55.9459548],[-3.1892051,55.9459548],[-3.1892051,55.9456548],[-3.1892051,55.9453548],[-3.1892051,55.9450548],[-3.1892051,55.9447548],[-3.189153,55.9444594],[-3.189153,55.9441594],[-3.1889601,55.9439296],[-3.1892556,55.9439817],[-3.189551,55.9440337],[-3.1898465,55.9440858],[-3.1898465,55.9437858],[-3.1898465,55.9434858],[-3.1898985,55.9431904],[-3.1898985,55.9428904],[-3.1897485,55.9426306],[-3.1900485,55.9426306],[-3.1897887,55.9427806],[-3.1895068,55.9428832],[-3.189247,55.9430332],[-3.1889516,55.9430853],[-3.1886561,55.9431374],[-3.1883607,55.9431895],[-3.1880653,55.9432416],[-3.1877698,55.9432937],[-3.1874698,55.9432937],[-3.1871744,55.9433458],[-3.1870718,55.9430639],[-3.1869692,55.9427819],[-3.1866872,55.9428846],[-3.1863918,55.9429366],[-3.186162,55.9427438],[-3.1858666,55.9427959],[-3.1855846,55.9428985],[-3.1856367,55.943194],[-3.1854069,55.9433868],[-3.1852141,55.9436166],[-3.1854069,55.9438464],[-3.1852569,55.9435866],[-3.1850271,55.9433938],[-3.1847973,55.9432009],[-3.1847452,55.9429055],[-3.1846931,55.9432009],[-3.184641,55.9434964],[-3.1845889,55.9437918],[-3.1845368,55.9440873],[-3.1845368,55.9443873],[-3.1844847,55.9446827],[-3.1844847,55.9449827],[-3.1847145,55.9451755],[-3.1849444,55.9453684],[-3.1851742,55.9455612],[-3.185404,55.9457541],[-3.1856638,55.9459041],[-3.1859457,55.9458014],[-3.1862276,55.9456988],[-3.1865095,55.9455962],[-3.1867914,55.9454936],[-3.1870869,55.9455457],[-3.1873688,55.9456483],[-3.1876286,55.9454983],[-3.187924,55.9454462],[-3.1882195,55.9453941],[-3.1880266,55.9451643],[-3.1878338,55.9449345],[-3.1876838,55.9446747],[-3.1875812,55.9443928],[-3.1873514,55.9442],[-3.1870916,55.94405],[-3.187387,55.9441021],[-3.1876825,55.9441542],[-3.1879825,55.9441542],[-3.1882779,55.9442062],[-3.1885779,55.9442062],[-3.1888733,55.9442583],[-3.1891733,55.9442583],[-3.1894688,55.9443104],[-3.1897688,55.9443104],[-3.1900642,55.9443625],[-3.1903642,55.9443625],[-3.1906597,55.9444146],[-3.1909597,55.9444146],[-3.1911097,55.9441548],[-3.1911097,55.9438548],[-3.1911097,55.9435548],[-3.1911618,55.9432594],[-3.1911618,55.9435594],[-3.1911618,55.9438594],[-3.1910592,55.9441413],[-3.1910592,55.9444413],[-3.1910592,55.9447413],[-3.1913411,55.9448439],[-3.191623,55.9449465],[-3.1919049,55.9450491],[-3.1922003,55.9451012],[-3.1919184,55.9449986],[-3.1916365,55.944896],[-3.1913546,55.9447934],[-3.1910727,55.9446908],[-3.1907772,55.9446387],[-3.1904818,55.9445866],[-3.1901818,55.9445866],[-3.1898864,55.9445345],[-3.1895864,55.9445345],[-3.1892909,55.9444824],[-3.1889909,55.9444824],[-3.1886955,55.9444303],[-3.1883955,55.9444303]]},"properties":{}},{"type":"Feature","geometry":{"type":"Point","coordinates":[-3.18514,55.943685]},"properties":{"location":"hello.love.keys","rgb-string":"#ffc000","marker-color":"#ffc000","marker-symbol":"danger"}},{"type":"Feature","geometry":{"type":"Point","coordinates":[-3.192221,55.945114]},"properties":{"location":"useful.hike.trades","rgb-string":"#ffc000","marker-color":"#ffc000","marker-symbol":"danger"}},{"type":"Feature","geometry":{"type":"Point","coordinates":[-3.189234,55.943012]},"properties":{"location":"region.passes.pencil","rgb-string":"#40ff00","marker-color":"#40ff00","marker-symbol":"lighthouse"}},{"type":"Feature","geometry":{"type":"Point","coordinates":[-3.191161,55.943065]},"properties":{"location":"else.urban.museum","rgb-string":"#000000","marker-color":"#000000","marker-symbol":"cross"}},{"type":"Feature","geometry":{"type":"Point","coordinates":[-3.187789,55.944386]},"properties":{"location":"thank.salsa.brain","rgb-string":"#80ff00","marker-color":"#80ff00","marker-symbol":"lighthouse"}},{"type":"Feature","geometry":{"type":"Point","coordinates":[-3.191065,55.944709]},"properties":{"location":"estate.gave.votes","rgb-string":"#40ff00","marker-color":"#40ff00","marker-symbol":"lighthouse"}},{"type":"Feature","geometry":{"type":"Point","coordinates":[-3.189138,55.944197]},"properties":{"location":"spoon.invest.every","rgb-string":"#40ff00","marker-color":"#40ff00","marker-symbol":"lighthouse"}},{"type":"Feature","geometry":{"type":"Point","coordinates":[-3.185621,55.943065]},"properties":{"location":"toned.deflection.bland","rgb-string":"#ffc000","marker-color":"#ffc000","marker-symbol":"danger"}},{"type":"Feature","geometry":{"type":"Point","coordinates":[-3.188608,55.943119]},"properties":{"location":"groups.ideas.script","rgb-string":"#80ff00","marker-color":"#80ff00","marker-symbol":"lighthouse"}},{"type":"Feature","geometry":{"type":"Point","coordinates":[-3.187018,55.943982]},"properties":{"location":"renew.ears.tend","rgb-string":"#c0ff00","marker-color":"#c0ff00","marker-symbol":"lighthouse"}},{"type":"Feature","geometry":{"type":"Point","coordinates":[-3.189812,55.94409]},"properties":{"location":"cliff.asleep.wedge","rgb-string":"#40ff00","marker-color":"#40ff00","marker-symbol":"lighthouse"}},{"type":"Feature","geometry":{"type":"Point","coordinates":[-3.18856,55.946057]},"properties":{"location":"boost.radar.stress","rgb-string":"#ff4000","marker-color":"#ff4000","marker-symbol":"danger"}},{"type":"Feature","geometry":{"type":"Point","coordinates":[-3.191113,55.943631]},"properties":{"location":"loaf.cheer.slave","rgb-string":"#00ff00","marker-color":"#00ff00","marker-symbol":"lighthouse"}},{"type":"Feature","geometry":{"type":"Point","coordinates":[-3.184803,55.943173]},"properties":{"location":"brings.remedy.latter","rgb-string":"#000000","marker-color":"#000000","marker-symbol":"cross"}},{"type":"Feature","geometry":{"type":"Point","coordinates":[-3.191065,55.94444]},"properties":{"location":"paying.crowd.weep","rgb-string":"#000000","marker-color":"#000000","marker-symbol":"cross"}},{"type":"Feature","geometry":{"type":"Point","coordinates":[-3.187018,55.942877]},"properties":{"location":"valve.elaborate.fortunate","rgb-string":"#000000","marker-color":"#000000","marker-symbol":"cross"}},{"type":"Feature","geometry":{"type":"Point","coordinates":[-3.185573,55.942877]},"properties":{"location":"dent.shins.cycle","rgb-string":"#ff0000","marker-color":"#ff0000","marker-symbol":"danger"}},{"type":"Feature","geometry":{"type":"Point","coordinates":[-3.18697,55.942688]},"properties":{"location":"strut.river.surely","rgb-string":"#ffc000","marker-color":"#ffc000","marker-symbol":"danger"}},{"type":"Feature","geometry":{"type":"Point","coordinates":[-3.185814,55.94603]},"properties":{"location":"renew.slows.basket","rgb-string":"#ff8000","marker-color":"#ff8000","marker-symbol":"danger"}},{"type":"Feature","geometry":{"type":"Point","coordinates":[-3.188945,55.943928]},"properties":{"location":"noted.friday.jams","rgb-string":"#40ff00","marker-color":"#40ff00","marker-symbol":"lighthouse"}},{"type":"Feature","geometry":{"type":"Point","coordinates":[-3.185525,55.943982]},"properties":{"location":"manliness.poem.cliff","rgb-string":"#c0ff00","marker-color":"#c0ff00","marker-symbol":"lighthouse"}},{"type":"Feature","geometry":{"type":"Point","coordinates":[-3.184465,55.944952]},"properties":{"location":"sports.topic.clocks","rgb-string":"#ff4000","marker-color":"#ff4000","marker-symbol":"danger"}},{"type":"Feature","geometry":{"type":"Point","coordinates":[-3.191113,55.94417]},"properties":{"location":"hills.giant.crate","rgb-string":"#00ff00","marker-color":"#00ff00","marker-symbol":"lighthouse"}},{"type":"Feature","geometry":{"type":"Point","coordinates":[-3.189379,55.945949]},"properties":{"location":"coherent.saints.stuck","rgb-string":"#ff0000","marker-color":"#ff0000","marker-symbol":"danger"}},{"type":"Feature","geometry":{"type":"Point","coordinates":[-3.184754,55.943012]},"properties":{"location":"courier.assume.bill","rgb-string":"#ff4000","marker-color":"#ff4000","marker-symbol":"danger"}},{"type":"Feature","geometry":{"type":"Point","coordinates":[-3.189764,55.942661]},"properties":{"location":"hooked.shine.third","rgb-string":"#40ff00","marker-color":"#40ff00","marker-symbol":"lighthouse"}},{"type":"Feature","geometry":{"type":"Point","coordinates":[-3.186248,55.942796]},"properties":{"location":"under.retire.bump","rgb-string":"#ff0000","marker-color":"#ff0000","marker-symbol":"danger"}},{"type":"Feature","geometry":{"type":"Point","coordinates":[-3.189908,55.942904]},"properties":{"location":"second.launch.miles","rgb-string":"#000000","marker-color":"#000000","marker-symbol":"cross"}},{"type":"Feature","geometry":{"type":"Point","coordinates":[-3.186344,55.942958]},"properties":{"location":"hers.banks.goat","rgb-string":"#ffc000","marker-color":"#ffc000","marker-symbol":"danger"}},{"type":"Feature","geometry":{"type":"Point","coordinates":[-3.187211,55.943335]},"properties":{"location":"scale.chair.kinds","rgb-string":"#ffc000","marker-color":"#ffc000","marker-symbol":"danger"}},{"type":"Feature","geometry":{"type":"Point","coordinates":[-3.186922,55.945437]},"properties":{"location":"spent.spoon.bolt","rgb-string":"#ff4000","marker-color":"#ff4000","marker-symbol":"danger"}},{"type":"Feature","geometry":{"type":"Point","coordinates":[-3.18803,55.944979]},"properties":{"location":"agents.mile.crib","rgb-string":"#c0ff00","marker-color":"#c0ff00","marker-symbol":"lighthouse"}},{"type":"Feature","geometry":{"type":"Point","coordinates":[-3.188801,55.945437]},"properties":{"location":"shady.soft.phones","rgb-string":"#ffc000","marker-color":"#ffc000","marker-symbol":"danger"}}]}