{"type":"FeatureCollection","features":[{"type":"Feature","geometry":{"type":"LineString","coordinates":[[-3.188396,55.944425],[-3.188246,55.9441652],[-3.188096,55.9439054],[-3.187946,55.9441652],[-3.1877532,55.944395],[-3.1874577,55.9444471],[-3.1872649,55.9442173],[-3.1870351,55.9440245],[-3.1872279,55.9437946],[-3.1873779,55.9435348],[-3.1872279,55.943275],[-3.1871253,55.9429931],[-3.1869753,55.9427333],[-3.1867825,55.9429631],[-3.1866325,55.9432229],[-3.1867825,55.9434827],[-3.1865227,55.9436327],[-3.1862629,55.9437827],[-3.1859809,55.9438853],[-3.1860835,55.9441672],[-3.1858016,55.9440646],[-3.1855197,55.943962],[-3.1854171,55.9442439],[-3.1852671,55.9445038],[-3.1850073,55.9446538],[-3.1848145,55.9448836],[-3.1846216,55.9451134],[-3.1844716,55.9453732],[-3.1847536,55.9454758],[-3.1850355,55.9455784],[-3.1853174,55.945681],[-3.1856128,55.9457331],[-3.1857628,55.9459929],[-3.1860447,55.9458903],[-3.1863045,55.9457403],[-3.1864974,55.9455105],[-3.1866474,55.9452507],[-3.1865953,55.9449552],[-3.1864453,55.9446954],[-3.1862155,55.9445026],[-3.1859856,55.9443098],[-3.1857558,55.9441169],[-3.185526,55.9439241],[-3.1852962,55.9437312],[-3.1850664,55.9435384],[-3.1853618,55.9434863],[-3.1856573,55.9434342],[-3.1859527,55.9433821],[-3.1862482,55.94333],[-3.1863508,55.9430481],[-3.1866508,55.9430481],[-3.1869508,55.9430481],[-3.1872508,55.9430481],[-3.1875508,55.9430481],[-3.1878508,55.9430481],[-3.1881462,55.9431002],[-3.1884462,55.9431002],[-3.188639,55.94333],[-3.188789,55.9435898],[-3.188939,55.9438496],[-3.189089,55.9441095],[-3.189389,55.9441095],[-3.189689,55.9441095],[-3.1899489,55.9439595],[-3.1901787,55.9437666],[-3.1903715,55.9435368],[-3.1905643,55.943307],[-3.1907572,55.9430772],[-3.1910572,55.9430772],[-3.1911598,55.9433591],[-3.1911598,55.9436591],[-3.1911077,55.9439545],[-3.1910556,55.94425],[-3.1910556,55.94395],[-3.1910556,55.94365],[-3.1911077,55.9433545],[-3.1911077,55.9430545],[-3.1911598,55.9427591],[-3.1908598,55.9427591],[-3.1905643,55.942707],[-3.1902643,55.942707],[-3.1899689,55.9426549],[-3.1896689,55.9426549],[-3.1897715,55.9429368],[-3.1896689,55.9432187],[-3.1895663,55.9435006],[-3.1894637,55.9437825],[-3.1893611,55.9440644],[-3.1892585,55.9443463],[-3.1892064,55.9446418],[-3.1891038,55.9449237],[-3.1890517,55.9452191],[-3.1889491,55.945501],[-3.188897,55.9457965],[-3.1886372,55.9456465],[-3.1883553,55.9455439],[-3.1886507,55.945596],[-3.1889461,55.9456481],[-3.1892416,55.9457002],[-3.189537,55.9457523],[-3.1898325,55.9458044],[-3.1901279,55.9458564],[-3.1904234,55.9459085],[-3.1907188,55.9459606],[-3.1910188,55.9459606],[-3.190759,55.9458106],[-3.1904992,55.9456606],[-3.1902394,55.9455106],[-3.1899796,55.9453606],[-3.1897198,55.9452106],[-3.18946,55.9450606],[-3.1892001,55.9449106],[-3.1889403,55.9447606],[-3.1886805,55.9446106],[-3.1884207,55.9444606]]},"properties":{}},{"type":"Feature","geometry":{"type":"Point","coordinates":[-3.187307,55.944494]},"properties":{"location":"only.fairly.rift","rgb-string":"#ffc000","marker-color":"#ffc000","marker-symbol":"danger"}},{"type":"Feature","geometry":{"type":"Point","coordinates":[-3.186296,55.945761]},"properties":{"location":"posts.kicked.universally","rgb-string":"#ff4000","marker-color":"#ff4000","marker-symbol":"danger"}},{"type":"Feature","geometry":{"type":"Point","coordinates":[-3.185236,55.944575]},"properties":{"location":"acid.chair.butter","rgb-string":"#ff8000","marker-color":"#ff8000","marker-symbol":"danger"}},{"type":"Feature","geometry":{"type":"Point","coordinates":[-3.186007,55.943901]},"properties":{"location":"teams.mild.played","rgb-string":"#ffc000","marker-color":"#ffc000","marker-symbol":"danger"}},{"type":"Feature","geometry":{"type":"Point","coordinates":[-3.188319,55.945518]},"properties":{"location":"skills.less.herb","rgb-string":"#000000","marker-color":"#000000","marker-symbol":"cross"}},{"type":"Feature","geometry":{"type":"Point","coordinates":[-3.187018,55.943982]},"properties":{"location":"renew.ears.tend","rgb-string":"#80ff00","marker-color":"#80ff00","marker-symbol":"lighthouse"}},{"type":"Feature","geometry":{"type":"Point","coordinates":[-3.184947,55.943443]},"properties":{"location":"sentences.sings.modern","rgb-string":"#ffc000","marker-color":"#ffc000","marker-symbol":"danger"}},{"type":"Feature","geometry":{"type":"Point","coordinates":[-3.191065,55.94444]},"properties":{"location":"paying.crowd.weep","rgb-string":"#40ff00","marker-color":"#40ff00","marker-symbol":"lighthouse"}},{"type":"Feature","geometry":{"type":"Point","coordinates":[-3.186729,55.945168]},"properties":{"location":"dragon.bottle.crisp","rgb-string":"#ffc000","marker-color":"#ffc000","marker-symbol":"danger"}},{"type":"Feature","geometry":{"type":"Point","coordinates":[-3.185525,55.943982]},"properties":{"location":"manliness.poem.cliff","rgb-string":"#ffc000","marker-color":"#ffc000","marker-symbol":"danger"}},{"type":"Feature","geometry":{"type":"Point","coordinates":[-3.189764,55.942661]},"properties":{"location":"hooked.shine.third","rgb-string":"#40ff00","marker-color":"#40ff00","marker-symbol":"lighthouse"}},{"type":"Feature","geometry":{"type":"Point","coordinates":[-3.189138,55.944197]},"properties":{"location":"spoon.invest.every","rgb-string":"#40ff00","marker-color":"#40ff00","marker-symbol":"lighthouse"}},{"type":"Feature","geometry":{"type":"Point","coordinates":[-3.191161,55.945976]},"properties":{"location":"simple.rust.audio","rgb-string":"#000000","marker-color":"#000000","marker-symbol":"cross"}},{"type":"Feature","geometry":{"type":"Point","coordinates":[-3.191161,55.943362]},"properties":{"location":"meal.feed.large","rgb-string":"#40ff00","marker-color":"#40ff00","marker-symbol":"lighthouse"}},{"type":"Feature","geometry":{"type":"Point","coordinates":[-3.185621,55.945761]},"properties":{"location":"shed.desire.muddy","rgb-string":"#ff4000","marker-color":"#ff4000","marker-symbol":"danger"}},{"type":"Feature","geometry":{"type":"Point","coordinates":[-3.188608,55.943119]},"properties":{"location":"groups.ideas.script","rgb-string":"#40ff00","marker-color":"#40ff00","marker-symbol":"lighthouse"}},{"type":"Feature","geometry":{"type":"Point","coordinates":[-3.188271,55.944063]},"properties":{"location":"rush.crown.link","rgb-string":"#00ff00","marker-color":"#00ff00","marker-symbol":"lighthouse"}},{"type":"Feature","geometry":{"type":"Point","coordinates":[-3.190727,55.943092]},"properties":{"location":"relate.chill.vest","rgb-string":"#00ff00","marker-color":"#00ff00","marker-symbol":"lighthouse"}},{"type":"Feature","geometry":{"type":"Point","coordinates":[-3.187355,55.943604]},"properties":{"location":"shut.stands.media","rgb-string":"#80ff00","marker-color":"#80ff00","marker-symbol":"lighthouse"}},{"type":"Feature","geometry":{"type":"Point","coordinates":[-3.184513,55.945302]},"properties":{"location":"settle.title.united","rgb-string":"#ff4000","marker-color":"#ff4000","marker-symbol":"danger"}},{"type":"Feature","geometry":{"type":"Point","coordinates":[-3.187789,55.944386]},"properties":{"location":"thank.salsa.brain","rgb-string":"#40ff00","marker-color":"#40ff00","marker-symbol":"lighthouse"}},{"type":"Feature","geometry":{"type":"Point","coordinates":[-3.18697,55.942688]},"properties":{"location":"strut.river.surely","rgb-string":"#ff4000","marker-color":"#ff4000","marker-symbol":"danger"}},{"type":"Feature","geometry":{"type":"Point","coordinates":[-3.189812,55.94409]},"properties":{"location":"cliff.asleep.wedge","rgb-string":"#40ff00","marker-color":"#40ff00","marker-symbol":"lighthouse"}},{"type":"Feature","geometry":{"type":"Point","coordinates":[-3.188897,55.945707]},"properties":{"location":"stops.else.chats","rgb-string":"#ff0000","marker-color":"#ff0000","marker-symbol":"danger"}},{"type":"Feature","geometry":{"type":"Point","coordinates":[-3.186103,55.944251]},"properties":{"location":"organs.shape.fantastic","rgb-string":"#ff4000","marker-color":"#ff4000","marker-symbol":"danger"}},{"type":"Feature","geometry":{"type":"Point","coordinates":[-3.191161,55.942742]},"properties":{"location":"along.spill.limp","rgb-string":"#00ff00","marker-color":"#00ff00","marker-symbol":"lighthouse"}},{"type":"Feature","geometry":{"type":"Point","coordinates":[-3.190294,55.943712]},"properties":{"location":"sculpture.shot.melon","rgb-string":"#40ff00","marker-color":"#40ff00","marker-symbol":"lighthouse"}},{"type":"Feature","geometry":{"type":"Point","coordinates":[-3.188704,55.943389]},"properties":{"location":"system.speak.guard","rgb-string":"#00ff00","marker-color":"#00ff00","marker-symbol":"lighthouse"}},{"type":"Feature","geometry":{"type":"Point","coordinates":[-3.191113,55.943901]},"properties":{"location":"spicy.bunch.shady","rgb-string":"#00ff00","marker-color":"#00ff00","marker-symbol":"lighthouse"}},{"type":"Feature","geometry":{"type":"Point","coordinates":[-3.184899,55.944736]},"properties":{"location":"slide.leads.stores","rgb-string":"#000000","marker-color":"#000000","marker-symbol":"cross"}},{"type":"Feature","geometry":{"type":"Point","coordinates":[-3.188126,55.943793]},"properties":{"location":"cubs.trucks.help","rgb-string":"#40ff00","marker-color":"#40ff00","marker-symbol":"lighthouse"}},{"type":"Feature","geometry":{"type":"Point","coordinates":[-3.185814,55.94603]},"properties":{"location":"renew.slows.basket","rgb-string":"#ff0000","marker-color":"#ff0000","marker-symbol":"danger"}},{"type":"Feature","geometry":{"type":"Point","coordinates":[-3.191161,55.943065]},"properties":{"location":"else.urban.museum","rgb-string":"#00ff00","marker-color":"#00ff00","marker-symbol":"lighthouse"}}]}